[{"cid":"LI11747085597","name":"Liquid","weight":6.0,"current_port":{"pid":"p-1","latitude":10.350763521711404,"longitude":107.06656901146908,"name":"VungTau","storingCapacity":8.7876688E7,"landingAbility":true},"current_vehicle":null,"fuel_consumption_per_km_on_ship":4.8,"fuel_consumption_per_km_on_truck":5.3},{"cid":"LI14559788921","name":"Liquid","weight":6.0,"current_port":{"pid":"p-2","latitude":1.3539389150639312,"longitude":103.85097857413851,"name":"Singapore","storingCapacity":8.7876688E7,"landingAbility":true},"current_vehicle":null,"fuel_consumption_per_km_on_ship":4.8,"fuel_consumption_per_km_on_truck":5.3},{"cid":"LI41601947667","name":"Liquid","weight":6.0,"current_port":{"pid":"p-3","latitude":13.678013256725489,"longitude":100.52214040968757,"name":"Bangkok","storingCapacity":8.7876688E7,"landingAbility":true},"current_vehicle":null,"fuel_consumption_per_km_on_ship":4.8,"fuel_consumption_per_km_on_truck":5.3},{"cid":"LI30607952027","name":"Liquid","weight":6.0,"current_port":{"pid":"p-4","latitude":11.593050570216564,"longitude":102.97761914843173,"name":"Sihanoukville","storingCapacity":8.7876688E7,"landingAbility":false},"current_vehicle":null,"fuel_consumption_per_km_on_ship":4.8,"fuel_consumption_per_km_on_truck":5.3},{"cid":"LI56338428134","name":"Liquid","weight":6.0,"current_port":{"pid":"p-5","latitude":3.8017726184842022,"longitude":100.98508365208035,"name":"Malaca","storingCapacity":8.7876688E7,"landingAbility":false},"current_vehicle":null,"fuel_consumption_per_km_on_ship":4.8,"fuel_consumption_per_km_on_truck":5.3},{"cid":"LI57069443123","name":"Liquid","weight":6.0,"current_port":{"pid":"p-5","latitude":3.8017726184842022,"longitude":100.98508365208035,"name":"Malaca","storingCapacity":8.7876688E7,"landingAbility":false},"current_vehicle":null,"fuel_consumption_per_km_on_ship":4.8,"fuel_consumption_per_km_on_truck":5.3}]